Name,Adress,category,phone_number,Website,latitude,longitude
"Muzeul de Arta","Piata Unirii , nr.1",Museum,"+40 256 491 592",http://www.muzeuldeartatm.ro/,45.7573543,21.2292917
"Muzeul Banatului"," Strada Martin Luther , nr.4",Museum,"+40 256 491 339",https://mnab.ro/,45.7530646,21.2270757
"Muzeul Satului"," Avram Imbroane, nr 1",Museum,"+40 256 225 588",http://muzeulsatuluibanatean.ro/,45.7770772,21.2660725
"Muzeul Communist"," Arhitect Laszlo Szekely,nr 1",Museum,"+40 751 892 340",https://www.facebook.com/muzeuconsumatorcomunist/,45.7432619,21.2243079
Tyropassage," Pasaj, Podul Tinere≈£ii",Museum,"No Number Available ",https://www.typopassage.ro/,,
"Transport Museum","Take Ionescu nr.56",Museum,"+40 256 277 710 ",http://www.ratt.ro/muzeuCM.html/,45.76289225,21.245905860455096
